institution,name,lat,lon,fuzz-ratio
Aalborg University,Aalborg University,57.015907049999996,9.975308243557345,100
Aalto University,Aalto University,60.1860789,24.828102074406736,100
Aarhus University,Aarhus University,56.1670905,10.202617693592895,100
Aberystwyth University,Aberystwyth University Boat House,52.4071457,-4.088065708310513,80
American University of Beirut,American University of Beirut,33.9000264,35.48238377752095,100
Australian National University,Australian National University,-35.28121335,149.11677886464528,100
BITS Pilani,Birla Institute of Technology and Science - BITS,28.35866475,75.58825578134679,14
BITS Pilani-Goa,BITS Library,28.365369,75.588956,52
Babeș-Bolyai University,Babeş-Bolyai University,46.7677836,23.59197655428016,96
Bauhaus University Weimar,Bauhaus University Weimar,50.97571335,11.330109194410245,100
Beihang University,Beihang University,39.9809427,116.34097867654876,100
Ben-Gurion University of the Negev,Ben Gurion University of the Negev,31.2631254,34.802238544584185,97
Bielefeld University,Universität Bielefeld,52.0376885,8.493223283579532,44
Birkbeck University of London,Birkbeck College,51.52184485,-0.13021550670673807,44
Bocconi University,Bocconi University,45.449719400000006,9.188708672031792,100
Boğaziçi University,Bogazici University,41.08475,29.051,89
Brunel University London,Brunel University London,51.5326092,-0.47404989072672915,100
CISPA Helmholtz Center,CISPA – Helmholtz Center for Information Security,49.25934725,7.051113127158179,62
Cardiff University,Cardiff University Students Union,51.4883511,-3.17749396163176,71
Carleton University,Carleton University,45.3858581,-75.69500411688679,100
Charles University,"Faculty of Arts, Charles University in Prague",50.088915400000005,14.416137207688877,57
Chinese Academy of Sciences,Chinese Academy of Sciences,39.90933665,116.32971461228999,100
City University of Hong Kong,City University of Hong Kong,22.336535,114.174392,100
City University of London,"City, University of London",51.5276441,-0.10359892518182634,98
Concordia University,Concordia University,45.49741,-73.5771,100
Cyprus University of Technology,mTtofis Kyriakou Building (Electrical Engineering) - Cyprus University of Technology,34.67507365,33.043283599999995,54
Czech Technical University,Czech Technical University in Prague,50.1029026,14.3946353,84
Durham University,Durham,54.779749,-1.581512,52
ETS Montreal,ETS - Centre de technologie thermique,45.49497815,-73.56067407713178,37
Ecole Normale Superieure,École Normale,48.934484,2.419196,65
Ecole Normale Superieure de Rennes,École normale supérieure de Rennes,48.0451896,-1.7457907,88
Federal University of Rio Grande,Federal University of Rio Grande do Sul,-30.03384,-51.21857,90
Freie Universitaet Berlin,Freie Universität Berlin Universitätsbliblothek,52.447946200000004,13.277927071960601,64
Friedrich Schiller University Jena,Friedrich-Schiller-University Jena,50.92997,11.58994,94
Galatasaray University,Galatasaray University,41.045992299999995,29.020462428881267,100
Goldsmiths University of London,"Goldsmiths, University of London Campus",51.47339855,-0.03735547774931765,89
Graz University of Technology,Graz University of Technology,47.05821,15.460194742646241,100
HEC Montreal,HEC Montréal,45.5036114,-73.6212922,92
HSE University,Moscow State University,55.70229715,37.53179772747929,65
Hamburg University of Technology,Hamburg University of Technology,53.461,9.969226430380203,100
Hanyang University,HANYANG,37.485103,127.042669,8
Harbin Institute of Technology,Harbin Institute of Technology,45.741589,126.62556263488914,100
Hasso Plattner Institute,Hasso-Plattner-Institut,52.393714,13.132289,89
Hebrew University of Jerusalem,Hebrew University of Jerusalem,31.7918555,35.244723,100
Heriot-Watt University,Heriot-Watt University,55.91029585,-3.323447514558347,100
Hong Kong Baptist University,Hong Kong Baptist University,22.3874201,114.2082222,100
Humboldt University of Berlin,Humboldt University of Berlin (main building),52.51858145,13.39287840245042,78
Hunan University,Hunan University,28.17954925,112.94109846746443,100
IIIT Bangalore,International Institute of Information Technology Bangalore,12.84430185,77.66329207588834,38
IIIT Delhi,IIIT-Delhi,28.54632595,77.27325504180786,90
IIIT Hyderabad,"International Institute of Information Technology, Hyderabad",17.4454957,78.34854697544472,38
IISc Bangalore,Indian Institute of Science,13.022234699999998,77.56718324768107,29
IIT Bhubaneswar,"IIT Bhubaneswar, Khorda",20.14808125,85.67642980645702,79
IIT Bombay,IIT Bombay Staff CHS Ltd,19.1145814,72.90500207784373,59
IIT Gandhinagar,IIT Gandhinagar Hostel Mess,23.2109137,72.68567936877673,71
IIT Hyderabad,Narayana IIT Campus,17.49745625,78.3985949,31
IIT Indore,Indian Institute Of Technology Indore,22.526927550000003,75.92620657865751,43
IIT Jodhpur,IIT Jodhpur,26.2713865,73.03333482988316,100
IIT Kharagpur,Indian Institute of Technology Kharagpur,22.31442745,87.31039202691741,49
IIT Madras,Indian Institute of Technology - IIT Madras ( இந்திய தொழில்நுட்ப கழகம் - சென்னை),12.9914769,80.2336786,22
IIT Patna,GOAL Institute for Medical/IIT,25.6206913,85.1282653,15
IMDEA Networks Institute,Fundación IMDEA Networks,40.336812,-3.770478,58
IMDEA Software Institute,IMDEA Software,40.406934,-3.835474,74
IPI PAN,IPI Lyon,45.770166,4.806452,53
IPM,Zahedan Islamic Republic of Iran Guard Corps Heliport,29.50094,60.8146,4
IST Austria,IST Austria,48.3109736,16.258631088976628,100
IT University of Copenhagen,IT University,55.65965525,12.591076889344563,65
Imperial College London,Imperial College,51.4994284,-0.1797084,82
Istanbul Technical University,Istanbul Technical University,41.10504645,29.02632676574676,100
Izmir Institute of Technology,İzmir Institute of Technology,38.32247565,26.637855746923606,97
Jacobs University Bremen,Jacobs University Bremen,53.167723300000006,8.651165678669964,100
KAIST,Kaist,68.20556,31.68923,20
KTH Royal Institute of Technology,KTH - Royal Institute of Technology (Södertälje),59.201676,17.62032,81
Karlsruhe Institute of Technology,Karlsruhe Institute of Technology,49.101853399999996,8.433120159201868,100
Korea University,Uni Credit,43.934711,18.794579,46
Koç University,Koç University,41.20315895,29.072865356234708,100
Kyoto University,Kyoto University,35.02704665,135.78143727667532,100
Kyung Hee University,Kyung Hee University,37.59675,127.05189,100
Kyungpook National University,National University,14.604163,120.994347,79
LMU Munich,LMU Fakultät für Chemie und Pharmazie,48.114032300000005,11.46707524508254,30
Lancaster University,Lancaster University,54.0140815,-2.7924393,100
Lebanese American University,Lebanese American University,33.89283555,35.4774984415219,100
Leiden University,Leiden University,52.168633850000006,4.45966305742133,100
Loughborough University,Loughborough University,52.7626882,-1.2396365359627026,100
Lund University,Faculty of Engineering at Lund University,55.7126504,13.210758659399971,54
Maastricht University,Maastricht University,50.84720265,5.685941396293034,100
Macquarie University,Macquarie University,-33.7740328,151.11269439194754,100
Masaryk University,Faculty of Informatics Masaryk univerzity,49.2099968,16.599248976309006,54
Massey University,Massey University,-40.3844693,175.6164996,100
Max Planck Society,Construction of Semiconductor Laboratory of the Max Planck Society,48.2633373,11.676567235061134,43
McGill University,McGill University,45.50691775,-73.5791162596496,100
McMaster University,McMaster University,43.263939699999995,-79.91782519029299,100
Memorial University of Newfoundland,Memorial University of Newfoundland and Labrador,47.585546,-52.736413,84
Middle East Technical University,Middle East Technical University,39.875496749999996,32.78553505584672,100
Middlesex University,Middlesex University,51.590297050000004,-0.2296322094540291,100
Monash University,Monash University,-37.783974549999996,144.95867432609305,100
Mälardalen University,Mälardalens Högskola,59.6176801,16.542068739683224,59
NTNU,Norwegian University of Science and Technology,63.408683249999996,10.468908740551136,8
NYU Shanghai,NYU Park,31.2272221,121.5297393,50
Nanjing University,Nanjing University,32.0565957,118.77408832807794,100
Nanyang Technological University,Nanyang Technological University,1.3484104000000001,103.68293320728537,100
National Taiwan University,National Univ,34.185192,-118.596773,67
National University of Singapore,National University of Singapore,1.2962018,103.77689943784759,100
Newcastle University,Newcastle University,54.98017505,-1.6146802127187847,100
Ontario Tech University,Ontario Tech University,43.94833105,-78.89816678087453,100
Open University UK,The Open University,52.024788,-0.710401,81
Osaka University,Osaka Prefecture University,34.54561785,135.50620785722236,74
POSTECH,Postech,25.260404,55.293652,14
PUC-RIO,Pontificia Universidade Católica do Rio de Janeiro,-22.97964355,-43.23315196475536,14
PUC-RS,Pontifical Catholic University of Rio Grande do Sul,-30.05516275,-51.17350846885846,14
Paderborn University,University of Paderborn,51.70752095,8.772403972858978,47
Politecnico di Milano,Politecnico di Milano,45.4784768,9.2295647,100
Qatar University,Qatar University,25.3719714,51.48795786318291,100
Queen Mary University of London,Queen Mary University of London,51.5247272,-0.03931034663016243,100
Queen's University Belfast,Queen's University,54.5842117,-5.9364324,82
Queensland University of Technology,Queensland University of Technology,-27.4561036,153.01387368150728,100
RMIT University,RMIT University,-37.8057346,144.9653216297798,100
RWTH Aachen,RWTH Aachen University,50.7791645,6.068920971222876,67
Ryerson University,Toronto Metropolitan University,43.6583244,-79.37892515687948,61
SUTD,SUTD Multifunction Sport Center,1.3416142500000001,103.96485519124263,23
Saarland University,Saarland University,49.25437635,7.041481352041722,100
Sabancı University,Sabancı Üniversitesi,40.8927159,29.378633226358197,84
Sapienza University of Rome,Sapienza University of Rome,41.90386,12.51489,100
Scuola Superiore Sant'Anna,Scuola Superiore,41.225046,15.386151,76
Seoul National University,Seoul National University,37.45917,126.95194,100
Shandong University,Shandong University,36.3688722,120.6738368,100
ShanghaiTech University,ShanghaiTech University,31.179430500000002,121.59023445501072,100
Sharif University of Technology,University of Technology,18.016475,-76.743473,87
Shenzhen University,Shenzhen University,22.53590225,113.93147487492186,100
Simon Fraser University,Simon Fraser University,49.276709600000004,-122.91780296438841,100
Singapore Management University,Singapore Management University,1.29616795,103.85004365998248,100
Soochow University,Soochow Household Hotel,33.6333,116.9666,49
South Asian University,South Asian University,28.484981949999998,77.20071960427245,100
Stellenbosch University,Stellenbosch University,-33.931521950000004,18.867665592062465,100
Sun Yat-sen University,Sun Yat-sen University (South Campus),23.09960335,113.29235087324346,75
TOBB ETÜ,TOBB ETÜ Ağaçlandırma Arazisi,39.91925005,32.79371831367338,43
TU Berlin,Technische Universität Berlin,52.51101585,13.326954140959668,47
TU Chemnitz,TU Campus,50.8139093,12.930433,50
TU Clausthal,Technische Universität Clausthal,51.80195535,10.34550527586038,55
TU Crete,Tavern,35.3104602,25.564606,29
TU Darmstadt,Tunnel,49.93146155,8.678997963056037,11
TU Dresden,Dresden University of Technology,51.028276500000004,13.735982754935176,33
TU Freiberg,TU Bergakademie Freiberg,50.9248208,13.331843035967744,63
TU Munich,TU München Institut für Pharmakologie,48.1649995,11.593086150000001,30
TU Wien,State Hall of the Austrian National Library,48.2061679,16.3666909,12
Tampere University,Tampere University Library,61.4952774,23.7780918,82
The Catholic University of Korea,The Catholic University of Korea,37.48601,126.80154,100
The Hong Kong Polytechnic University,The Hong Kong Polytechnic University,22.304486699999998,114.17969345666262,100
Tokyo Institute of Technology,Tokyo Institute of Technology,35.514745649999995,139.48399813369707,100
Tongji University,Tongji University,31.28473925,121.49694908588742,100
Trinity College Dublin,Trinity College Dublin,53.34366745,-6.254444724511822,100
Tsinghua University,Tsinghua University,40.002290450000004,116.3209629696906,100
UESTC,"University of Science and Technology of China, East Campus",31.839071949999997,117.26420747857581,10
UNIST,UNIST Main Building,35.573814,129.190789,42
UNSW,UNSW,-33.9175545,151.2291515,100
USP,University of São Paulo,-23.56096405,-46.72770807289966,23
Universidad Nacional de Córdoba,Universidad Nacional de Córdoba,-31.4369591,-64.18767563997622,100
Universidad Rey Juan Carlos,Universidad Rey Juan Carlos,40.33611785,-3.8771203152794294,100
Universidad de Zaragoza,Universidad de Alcalá de Henares,40.482867,-3.363108,62
Universidad de los Andes,Universidad de los Andes,4.694193,-74.033362,100
Universidade Federal de Viçosa,Universidade Federal de Viçosa,-20.76763505,-42.858785454528096,100
Universidade NOVA de Lisboa,Universidade nova de Lisboa,38.7328407,-9.1602002,85
Universidade de Brasília,Universidade de Brasília,-15.76387,-47.86926,100
Universidade de Lisboa,Universidade Autónoma de Lisboa Luís de Camões,38.724267,-9.145577,65
University College London,University College Hospital,51.52484825,-0.1365251134385993,77
University of A Coruña,Higher Technical University College of Maritime and Naval Machines - UDC,43.3706459,-8.42022351645989,34
University of Aberdeen,University of Aberdeen,57.164909,-2.10258,100
University of Adelaide,University of Adelaide,-34.9189226,138.60423667410745,100
University of Alberta,University of Alberta,53.52682,-113.5244937350756,100
University of Amsterdam,University of Amsterdam,52.36813335,4.889804155733945,100
University of Athens,National and Kapodistrian University of Athens - Campus,37.97003795,23.76523669720041,53
University of Auckland,Waipapa Taumata Rau / University of Auckland,-36.8660955,174.77373309361866,67
University of Bayreuth,University of Bayreuth,49.9270796,11.587226615128671,100
University of Bergen,Western Norway University of Applied Sciences,60.36887575,5.351111541486731,52
University of Bern,University of Bern,46.95097255,7.438684130809055,100
University of Birmingham,University,52.451179,-1.9366088,59
University of Bonn,University of Bonn,50.7338124,7.1022465,100
University of Bremen,University of Bremen,53.107964550000005,8.855664592828369,100
University of Bristol,University of Bristol Temple Quarter Enterprise Campus,51.44962135,-2.578381992712973,56
University of Buenos Aires,National University of Comahue,-38.9394882,-68.05033651504556,57
University of Calgary,University of Calgary,51.0783651,-114.1283072,100
University of Cambridge,University,50.7945542,-1.0970158,61
University of Canterbury,University of Canterbury,-43.5240781,172.5803074154386,100
University of Cape Town,University of Cape Town,-33.95675585,18.467577702002977,100
University of Chinese Academy of Sciences,Yo San University of Traditional Chinese Medicine,33.99323,-118.442926,58
University of Copenhagen,University of Copenhagen,55.6801502,12.57232700140625,100
University of Crete,University of Crete,35.3072756,25.08249485321918,100
University of Düsseldorf,Düsseldorf University of Applied Science,51.24812155,6.79124852501046,50
University of Erlangen–Nuremberg,University Library Erlangen-Nuremberg: Sublibrary Theology,49.600375,11.0171829,64
University of Exeter,University of Exeter,50.736854,-3.533407,100
University of Freiburg,Brand University of Applied Sciences,53.545886,9.930517,55
University of Groningen,Academy Building,53.21967825,6.562514810379012,31
University of Guelph,University of Guelph,43.535193,-80.22009972637464,100
University of Göttingen,University of Bayreuth,49.92633,11.58504,67
University of Hannover,University of Veterinary Medicine Hanover,52.3685695,9.765730655885474,67
University of Helsinki,University of Helsinki,60.171039300000004,24.949155335163038,100
University of Hong Kong,The University of Hong Kong,22.283269,114.136744,92
University of Innsbruck,University of Innsbruck-Campus Innrain,47.26331595,11.384473309954492,75
University of Ioannina,University of Ioannina,39.615659050000005,20.83952573354071,100
University of Jordan,University of Utah Healthcare - South Jordan Health Center,40.542293,-112.014197,51
University of Kassel,International YMCA University of Applied Scienes,51.303706250000005,9.414465124062877,44
University of Kent,University of Kent,51.295015750000005,1.0673010856199983,100
University of Klagenfurt,University of Klagenfurt,46.616402550000004,14.264680917308162,100
University of Konstanz,University of Konstanz,47.690088599999996,9.188243876500252,100
University of L'Aquila,Università degli Studi dell'Aquila - Corsi di Studio di Economia,42.3538791,13.412249567853056,42
University of Leeds,"University of Leeds, Sports Park Weetwood",53.83755925,-1.587391740217544,63
University of Leipzig,Leipzig University of Applied Sciences,51.3131269,12.373565233025795,54
University of Luxembourg,University of Luxembourg,49.62319225,6.112759617239071,100
University of Lübeck,University of Lübeck,53.8344,10.70392,100
University of Mainz,University of Bayreuth,49.92633,11.58504,73
University of Malaya,University of Malaya,3.1255683000000003,101.65582254721087,100
University of Manchester,University of Manchester - Oxford Road Campus,53.4657087,-2.232734319907597,70
University of Manitoba,University of Manitoba,49.815622,-97.118363,100
University of Mannheim,Hochschule Mannheim,49.4699765,8.4819024,49
University of Melbourne,University of Melbourne,-37.7970796,144.96130134414312,100
University of Molise,Università degli Studi del Molise,41.55380325,14.664859584699817,64
University of Murcia,Granja Veterinaria Univ. de Murcia,38.00615485,-1.173125859127686,44
University of New Brunswick,University of New Brunswick,45.945530250000004,-66.64018313486694,100
University of Newcastle,Warabrook,-32.8870387,151.7098651,12
University of Nicosia,University of Nicosia,35.1660481,33.314940552800635,100
University of Nottingham,University of Nottingham,52.9387428,-1.2002956927457427,100
University of Osnabrück,Library of the University of Osnabrueck,52.2733042,8.0455442,71
University of Otago,University of Otago,-45.8649793,170.51461487350844,100
University of Ottawa,University of Ottawa,45.42252705,-75.68339041611182,100
University of Piraeus,University of Piraeus,37.94173275,23.653032618219704,100
University of Pisa,Reserved university parking,43.7199174,10.410056942742635,49
University of Potsdam,XU Exponential University of Applied Sciences,52.3888479,13.1197939,45
University of Queensland,The University of Queensland,-27.49741805,153.01316955983583,92
University of Regina,University of Regina,50.4152275,-104.58899996239825,100
University of Rostock,University of Rostock Faculty for Agricultural and Environmental Sciences,54.07541,12.09848,45
University of Salerno,University of Illinois at Chicago,41.870832,-87.64993,63
University of Sannio,University of Illinois at Chicago,41.870832,-87.64993,64
University of Saskatchewan,University of Saskatchewan,52.13441935,-106.6277768327002,100
University of Sheffield,University of Sheffield,53.3815327,-1.4806602,100
University of Southampton,University of Southampton,50.93703355,-1.4050090771323005,100
University of St Andrews,University of St Andrews,56.3398198,-2.8117937053149826,100
University of Stuttgart,University of Hohenheim,48.7133801,9.21208986402533,61
University of Surrey,University of Surrey,51.24307815,-0.5900544877514773,100
University of Sussex,University of Sussex,50.86796665,-0.08778899363132905,100
University of Sydney,The University of Sydney,-33.88888125,151.18941425705117,91
University of Szeged,University of Szeged,46.25004545,20.146503351468105,100
University of Technology Sydney,University of Technology Sydney,-33.8828784,151.20068119546247,100
University of Tokyo,University of Tokyo,35.71339,139.76232,100
University of Toronto,University of Toronto,43.663461999999996,-79.39775966248058,100
University of Trento,University of Trento,46.06682,11.12326,100
University of Trier,Trier University of Applied Sciences,49.768058100000005,6.628690122060743,58
University of Tsukuba,University of Tsukuba,36.1070526,140.10066020403983,100
University of Twente,University of Twente,52.23881,6.85035,100
University of Tübingen,Climate Garden of University Tuebingen,48.53405945,9.071244429234808,60
University of Ulm,Hochschule Neu-Ulm,48.38044334999999,10.010101151636224,29
University of Victoria,University of Victoria,48.468468,-123.316619,100
University of Vienna,University of Vienna,48.2131284,16.360685994114505,100
University of Waikato,University of Waikato,-37.7858739,175.31676647297562,100
University of Warsaw,University of Warsaw,52.2402106,21.018851115550465,100
University of Warwick,University of Warwick,52.3813073,-1.5639569481637439,100
University of Waterloo,University of Waterloo,43.4701994,-80.54524293779451,100
University of Western Australia,University of Western Australia,-31.95040445,115.79790157357621,100
University of Windsor,University of Windsor,42.305201350000004,-83.06649144027972,100
University of Wroclaw,University of Wrocław,51.11399,17.03393,95
University of Würzburg,University of Bayreuth,49.92633,11.58504,73
University of Zurich,Zurich University of Applied Sciences,47.49684345,8.72980716809498,56
Università della Svizzera italiana,Universita della Svizzera Italiana (USI),46.0109126,8.958120471825609,86
Université Jean Monnet,Université - Jean Jaurès,45.748455,4.84387,70
Université Laval,Université de Montréal - Campus Laval,45.55889325,-73.72078951223438,60
Université Paris Dauphine,Université Paris-Dauphine,48.87015115,2.2735218497104226,96
Université de Sherbrooke,Université de Sherbrooke,45.37796365,-71.92746417605778,100
Université libre de Bruxelles,Université Libre de Bruxelles (Campus du Solbosch),50.81347185,4.381235729203142,71
Uppsala University,Uppsala University,59.85519,17.63149,100
Utrecht University,Utrecht University,52.09021,5.12233,100
VISTEC,VISTEC,13.0016529,101.441304,100
Victoria University of Wellington,Victoria University of Wellington,-36.8482415,174.76775596988733,100
Weizmann Institute of Science,Weizmann Institute of Science,31.907849900000002,34.81334092444211,100
Western University,Western University,43.0088973,-81.2621821,100
Westlake University,"Westlake University, School of Life Sciences, building 1",30.1360628,120.0765667339482,51
Xi'an Jiaotong University,Xian Jiaotong University,34.2474949,108.97897240302595,98
Yonsei University,Yonsei University,37.565,126.93833,100
Yıldız Technical University,technical university,2.202113,102.247069,77
CUNY,Cuny Table,43.5316556,-102.6837909,14
Boston University,Boston University,42.350189400000005,-71.10070118497421,100
University of Washington,University of Washington,47.6543466,-122.30806059473039,100
George Mason University,George Mason University,38.83133325,-77.30798838879116,100
Colorado State University,Colorado,39.6796152,-104.9376995,48
Iowa State University,Iowa State Capitol,41.591189,-93.603811,67
Duke University,Duke University,36.00015569999999,-78.94422972195878,100
Florida International University,Florida International University,25.7553898,-80.3762832779774,100
Oklahoma State University,Southeastern Oklahoma State University,34.0083179,-96.3756103445447,79
Northeastern University,Northeastern University,42.3390301,-71.08791294953176,100
Rutgers University,Rutgers University,40.4855746,-74.4319015,100
Washington University in St. Louis,Washington University in St. Louis,38.64724015,-90.3084017323959,100
University of Colorado Boulder,University of Colorado,40.00759835,-105.26910078017822,85
University of Notre Dame,University of Notre Dame du Lac,41.704567749999995,-86.23822026017265,87
University of Chicago,The University of Chicago,41.79139685,-87.60084387193544,91
University of Pennsylvania,University of Pennsylvania,39.9493382,-75.18964402998125,100
Yale University,Yale University,41.25713055,-72.98966960152231,100
Stanford University,Stanford University,37.431313849999995,-122.16936535498309,100
University of Iowa,University of Iowa,41.631102350000006,-91.54075201642047,100
Princeton University,Princeton University,40.33867515,-74.65836549131683,100
Carnegie Mellon University,Carnegie Mellon University,40.444189699999995,-79.94271918393466,100
University of Connecticut,University of Connecticut,41.82175755,-72.24277535505323,100
University of Florida,University of Florida,29.6328784,-82.34901329340119,100
Michigan State University,Michigan Theater,42.27949,-83.74175,63
Texas Tech University,Texas Tech University,33.59375255,-101.89959552302756,100
University of New Orleans,University of New Orleans - East Campus,30.03043785,-90.04932935842601,78
University of New Mexico,University of New Mexico,35.08663275,-106.62020940505188,100
Cornell University,Cornell University,42.450550699999994,-76.47835129554275,100
University of Central Florida,University of Central Florida,28.592364,-81.208607,100
University of Minnesota,"The University of Minnesota, Twin Cities Campus",44.9863392,-93.17945580218503,66
Vanderbilt University,Vanderbilt University,36.14380105,-86.80281889095295,100
Johns Hopkins University,Johns Hopkins University - Homewood Campus,39.33020225,-76.62185357858337,73
Northern Arizona University,Northern Arizona University,35.1834428,-111.65500037883243,100
Wichita State University,Wichita,33.233136,-97.869415,45
Georgia Institute of Technology,Georgia Tech,33.776033,-84.39884086001581,56
Univ. of Illinois at Urbana-Champaign,University of Illinois at Urbana-Champaign,40.10056605,-88.23131272434611,91
Massachusetts Institute of Technology,Massachusetts Institute of Technology,42.3582529,-71.0966272383055,100
Arizona State University,Arizona,32.2287639,-110.9575209,45
Washington State University,Washington State University,46.7337724,-117.14976069286374,100
University of Pittsburgh,University of Pittsburgh,40.44415295,-79.96246095144505,100
University of Massachusetts Amherst,University of Massachusetts,42.38898,-72.5287,87
DePaul University,DePaul University,41.92401995,-87.65472731476649,100
California Institute of Technology,California Institute of Technology,34.13701375,-118.1252882487961,100
University of Delaware,University of Delaware,39.6810328,-75.7540184,100
University of Louisville,University of Louisville,38.21332235,-85.75770751081866,100
Univ. of California - Irvine,"Strategic Communications, University of California, Irvine",33.6440883,-117.8555373,58
University of Utah,University of Utah,40.762813699999995,-111.83687191368261,100
Univ. of California - Berkeley,"University of California, Berkeley",37.8753497,-122.23963364918777,84
Univ. of California - Davis,"University of California, Davis",38.533790350000004,-121.79079892146456,83
Binghamton University,State University of New York at Binghamton,42.08779975,-75.97066065614858,41
Virginia Tech,Virginia Polytechnic Institute and State University,37.22192675,-80.42728184013652,38
Stevens Institute of Technology,Stevens Institute of Technology,40.744809599999996,-74.0252392276461,100
University of South Florida,The University of the South,35.20447165,-85.91895307141937,70
Rochester Institute of Technology,Rochester Institute of Technology,43.08248835,-77.67291102378641,100
College of William and Mary,College of William and Mary,37.26908455,-76.72273688917291,100
West Virginia University,West Virginia University,39.63595,-79.95545,100
Northwestern University,Northwestern University,42.0551164,-87.67581113482166,100
Augusta University,Augusta University,33.4693345,-81.988562,100
Univ. of California - Riverside,"University of California, Riverside",33.96370575,-117.33978065170642,85
Purdue University,Purdue University,40.43002715,-86.92647668759187,100
Univ. of California - Merced,"University of California, Merced",37.3651866,-120.42273040717912,83
University at Buffalo,University of Nebraska at Kearney,40.6989871,-99.11044498253119,56
The University of Alabama,University of Alabama,33.21208215,-87.53967401518648,91
UNC - Charlotte,JW Clay Boulevard/UNC Charlotte,35.3107104,-80.745231,57
University of Virginia,University of Virginia,38.0410576,-78.50549960183568,100
University of Southern California,University of Southern California,34.0218833,-118.28586662125,100
Western Michigan University,Western Michigan University,42.28333755,-85.60950673080742,100
University of Nevada Las Vegas,University of Nevada,39.54158,-119.81491,80
Rice University,Rice University,29.716791450000002,-95.40478113393792,100
University of Michigan,University of Michigan,42.2942142,-83.71003893509601,100
University of Vermont,University of Vermont,44.4737365,-73.19414679705882,100
Air Force Institute of Technology,Air Force Institute of Technology,39.7819802,-84.08260144944413,100
Oregon State University,Oregon State University,44.56305595,-123.28392363395751,100
Florida State University,University of Florida,29.6328784,-82.34901329340119,44
University of Houston,University of Houston,29.7207902,-95.34406271491369,100
Virginia Commonwealth University,Virginia Commonwealth University,37.546124649999996,-77.45406089907547,100
North Carolina State University,North Carolina Zoo,35.628902,-79.761193,61
University of Kansas,University of Kansas,38.953491799999995,-95.26308879955823,100
Emory University,Emory University,33.795867650000005,-84.32778960627682,100
Georgia State University,Georgia State University,33.754761349999995,-84.38819218475689,100
Georgetown University,Georgetown University,38.90893925,-77.07457962060826,100
Wayne State University,Wayne State University,42.35720515,-83.07094978691399,100
Towson University,Towson University,39.38966285,-76.61589248682586,100
University of Arkansas,University of Arkansas,36.09352375,-94.17708979491738,100
University of North Carolina,University of North Carolina,35.90503535,-79.04775326525107,100
Columbia University,Columbia University,40.80775585,-73.96164946987652,100
University of Cincinnati,University of Cincinnati,39.1318613,-84.51576195582436,100
Michigan Technological University,Michigan Technological University,47.1099114,-88.55115132910507,100
University of Texas at San Antonio,The University of Texas at San Antonio,29.582022,-98.620112,94
Drexel University,Drexel University,39.9574,-75.19026656335703,100
New York University,New York University,40.72925325,-73.99625393609625,100
Stony Brook University,Stony Brook University,40.9090809,-73.12055180275716,100
University of Texas at Arlington,University of Texas at Austin,30.285319,-97.734219,85
University of Arizona,University of Arizona,32.2356427,-110.951744125426,100
Tufts University,Tufts University,42.40649125,-71.11800725402092,100
Auburn University,Auburn University,32.591987700000004,-85.4959487362446,100
University of Tennessee,University of Tennessee,35.9542493,-83.9307395,100
Utah State University,Utah Valley University,40.27941055,-111.71788683218048,84
Univ. of California - Santa Barbara,"University of California, Santa Barbara",34.414602450000004,-119.84581004701371,86
Portland State University,Portland State University,45.51181205,-122.68492999382892,100
University of Southern Mississippi,University of Southern Mississippi,31.3286452,-89.3367311705755,100
University of Louisiana - Lafayette,University of Louisiana at Lafayette,30.21928995,-92.04138303976296,96
Boise State University,Sign Shop at Boise State University,43.6040339,-116.2067442,77
University of South Carolina,University of South Carolina,33.992829799999996,-81.02685165712111,100
University of Wyoming,University of Wyoming,41.3144774,-105.56432285957351,100
Brown University,Brown University,41.8186395,-71.40880088822493,100
University of Oklahoma,University of Oklahoma,35.1959878,-97.44570827599858,100
Case Western Reserve University,Case Western Reserve University,41.505188,-81.604614,100
Rensselaer Polytechnic Institute,Rensselaer Polytechnic Institute,42.729921950000005,-73.67953982458829,100
Cleveland State University,Cleveland State University,41.50214445,-81.67516704866894,100
University of Texas at Dallas,University of Texas at Dallas,32.9875855,-96.74976927802929,100
Syracuse University,Syracuse University,43.017112850000004,-76.11855360009726,100
IUPUI,The Arbor Garden at IUPUI,39.77420105,-86.17500108342136,33
Claremont Graduate University,Claremont Graduate University,34.110385199999996,-117.71758836815268,100
Ohio State University,The Ohio State University,40.006009,-83.01132,91
Old Dominion University,Old Dominion University,36.8862699,-76.30972478839735,100
Temple University,Temple University,39.981188,-75.15628280757346,100
Texas State University,Texas State University,29.8884765,-97.94479885849292,100
University of Denver,University of Denver,39.67831365,-104.96250921815401,100
Brandeis University,Brandeis University,42.36650945,-71.2580196483813,100
Oakland University,Oakland University,42.666633250000004,-83.20655751756584,100
University of Michigan-Dearborn,University of Michigan-Dearborn,42.3172294,-83.23193935538828,100
Lehigh University,Lehigh University,40.6068028,-75.3782488,100
University of Missouri - Kansas City,University of Missouri,39.03924035,-94.57248659618713,76
Harvard University,Harvard University,42.36790855,-71.12678237443698,100
University of Nebraska,University of Nebraska - Lincoln City Campus,40.8206834,-96.70048317521739,67
University of North Texas,University of North Texas,33.2098926,-97.15147624977251,100
Tulane University,Tulane University,29.94121955,-90.12010089179185,100
Ohio University,Ohio University,39.32300405,-82.10267681533172,100
University of Idaho,University of Idaho,46.72379775,-117.02043898436474,100
University of Nebraska - Omaha,University of Nebraska at Omaha,41.257793250000006,-96.0104763,95
University of Hawaii at Manoa,University of Hawaiʻi at Manoa,21.2982795,-157.81869356088555,98
Worcester Polytechnic Institute,Worcester Polytechnic Institute,42.274315,-71.80845674552586,100
Brigham Young University,Brigham Young University,40.25501105,-111.64953257145665,100
University of Massachusetts Boston,University of Massachusetts,42.38898,-72.5287,89
Colorado School of Mines,Colorado School of Mines,39.75269125,-105.22287205576333,100
Baylor University,Baylor University,31.55043405,-97.1102905567766,100
Illinois Institute of Technology,Illinois Institute of Technology,41.8352554,-87.62643622073041,100
University of Colorado - Denver,University of Colorado,40.00759835,-105.26910078017822,83
University of Tulsa,University of Tulsa,36.1523306,-95.94596023877983,100
Missouri University of Technology,Missouri University of Science and Technology,37.952962,-91.778002,85
University of Mississippi,University of Mississippi,34.3646125,-89.53963491020966,100
University of Georgia,University of Georgia,33.9404278,-83.37304904988295,100
University of Missouri,Saint Louis University,38.6352837,-90.2316773318154,45
University of Arkansas - Little Rock,University of Arkansas Cammack Campus,34.775925,-92.342097,68
LIU Post,Liu,28.6631238,-81.2349235,18
University of New Hampshire,University of New Hampshire,43.13826535,-70.93238172334156,100
Southern Methodist University,Southern Methodist University,32.841801149999995,-96.78152810147064,100
University of Alabama - Huntsville,University of Alabama (historical),33.19345,-87.52251,74
Florida Institute of Technology,Florida Institute of Technology,28.0642296,-80.6230097241205,100
North Dakota State University,North Dakota State University,46.897155,-96.81826543221285,100
University of Memphis,The University of Memphis,35.1189387,-89.93721959965887,91
Boston College,Boston College,42.3354481,-71.16813864023061,100
University of Maine,University of Maine Orono,44.8991352,-68.66637461527564,86
 Wichita State University,Wichita,33.233136,-97.869415,44
Simmons University,Simmons University,42.34143655,-71.10544912486057,100
